City_ID,City,Lat,Lng,Max Temp,Humidity,Cloudiness,Wind Speed,Country,Date
0,kingston,17.997,-76.7936,30.53,79,20,6.17,JM,1693458323
1,saint clairsville,40.0806,-80.9001,16.29,87,100,2.97,US,1693458323
2,adamstown,-25.066,-130.1015,20.96,84,100,6.72,PN,1693458324
3,port-aux-francais,-49.35,70.2167,3.2,87,95,18.98,TF,1693458324
4,stanley,54.868,-1.6985,7.08,95,84,0.51,GB,1693458324
5,starokostiantyniv,49.7576,27.2034,16.6,91,6,3.4,UA,1693458324
6,al ghayzah,16.2079,52.176,27.58,81,76,4.66,YE,1693458324
7,margaret river,-33.95,115.0667,20.6,53,0,4.19,AU,1693458325
8,franceville,-1.6333,13.5836,21.88,87,26,1.03,GA,1693458325
9,langepas,61.2544,75.2124,18.81,63,100,8.32,RU,1693458325
10,dudinka,69.4058,86.1778,8.68,45,15,7.26,RU,1693458322
11,afaahiti,-17.75,-149.2833,23.93,73,98,5.16,PF,1693458325
12,ust-nera,64.5667,143.2,14.56,88,98,3.82,RU,1693458325
13,yuzhnoural'sk,54.4418,61.2536,8.46,79,93,3.41,RU,1693458326
14,west island,-12.1568,96.8225,27.99,74,40,5.66,CC,1693458326
15,el calafate,-50.3408,-72.2768,-0.52,83,47,0.88,AR,1693458326
16,gorontalo,0.5412,123.0595,31.32,47,67,4.49,ID,1693458326
17,grytviken,-54.2811,-36.5092,-3.44,77,78,1.44,GS,1693458327
18,isafjordur,66.0755,-23.124,10.48,76,99,1.75,IS,1693458327
19,iqaluit,63.7506,-68.5145,3.85,86,75,1.54,CA,1693458327
20,puerto natales,-51.7236,-72.4875,1.84,84,52,4.88,CL,1693458327
21,tazovsky,67.4667,78.7,9.51,53,45,3.3,RU,1693458327
22,yulinshi,38.2906,109.7494,28.39,26,95,2.73,CN,1693458327
23,northam,51.0333,-4.2167,13.14,94,100,4.85,GB,1693458328
24,magdagachi,53.45,125.8,21.51,50,100,3.17,RU,1693458328
25,amta,22.58,88.0083,34.96,46,52,0.74,IN,1693458328
26,edinburgh of the seven seas,-37.0676,-12.3116,11.53,61,20,7.42,SH,1693458328
27,blytheville,35.9273,-89.919,20.12,88,0,2.57,US,1693458056
28,mosjoen,65.836,13.1908,11.06,93,100,1.54,NO,1693458328
29,high rock,26.6208,-78.2833,30.01,78,20,8.56,BS,1693458328
30,waitangi,-43.9535,-176.5597,10.46,85,7,2.24,NZ,1693458328
31,sabang,5.8933,95.3214,28.36,76,100,9.25,ID,1693458328
32,abepura,-2.6333,140.5833,32.45,55,20,4.12,ID,1693458329
33,zaoyang,32.1272,112.7542,31.16,45,0,1.35,CN,1693458329
34,yellowknife,62.456,-114.3525,16.98,88,10,1.79,CA,1693458095
35,gloucester,51.8657,-2.2431,12.62,87,91,1.57,GB,1693458329
36,bethel,41.3712,-73.414,19.31,78,0,2.06,US,1693458329
37,kuanda,56.3161,116.0806,24.44,38,8,1.26,RU,1693458330
38,hithadhoo,-0.6,73.0833,27.47,75,98,2.88,MV,1693458330
39,namibe,-15.1961,12.1522,17.94,93,49,1.54,AO,1693458330
40,kapuskasing,49.4169,-82.4331,13.05,87,75,2.57,CA,1693458330
41,hotan,37.0997,79.9269,28.99,16,0,2.1,CN,1693458331
42,udachny,66.4167,112.4,5.25,93,100,9.15,RU,1693458331
43,petropavlovsk-kamchatsky,53.0452,158.6483,24.33,41,0,6.0,RU,1693458331
44,remire-montjoly,4.9167,-52.2667,24.02,100,75,1.03,GF,1693458331
45,sinabang,2.4803,96.3801,27.78,80,74,2.65,ID,1693458331
46,wynyard,-41.0,145.7167,12.21,69,22,6.78,AU,1693458331
47,arraial do cabo,-22.9661,-42.0278,20.29,90,8,6.99,BR,1693458114
48,jamestown,42.097,-79.2353,15.77,94,100,4.12,US,1693458202
49,okhotsk,59.3833,143.3,19.05,75,4,3.25,RU,1693458332
50,tianpeng,30.9866,103.9393,30.26,51,82,2.58,CN,1693458324
51,urzhar,47.093,81.6294,26.16,32,97,9.46,KZ,1693458332
52,atafu village,-8.5421,-172.5159,28.75,73,64,6.39,TK,1693458332
53,kalach,50.4258,41.0261,20.04,29,6,1.93,RU,1693458333
54,saint-philippe,-21.3585,55.7679,19.77,68,67,4.13,RE,1693458333
55,sur,22.5667,59.5289,31.52,60,3,2.61,OM,1693458333
56,aasiaat,68.7098,-52.8699,3.17,84,100,5.56,GL,1693458334
57,charters towers,-20.1,146.2667,29.78,15,0,1.07,AU,1693458334
58,invercargill,-46.4,168.35,15.57,55,15,5.36,NZ,1693458334
59,puerto ayora,-0.7393,-90.3518,24.75,93,42,3.13,EC,1693458335
60,montrose,38.4166,-108.2673,16.96,35,0,3.93,US,1693458287
61,east london,-33.0153,27.9116,21.52,28,0,4.12,ZA,1693458335
62,port douglas,-16.4833,145.4667,24.0,54,18,2.81,AU,1693458335
63,codrington,-38.2667,141.9667,12.76,75,98,7.72,AU,1693458335
64,olonkinbyen,70.9221,-8.7187,5.34,78,99,3.32,SJ,1693458335
65,malvan,16.0667,73.4667,28.13,74,59,2.03,IN,1693458335
66,bayanhongor,46.7167,100.1167,18.92,34,100,5.69,MN,1693458335
67,ushuaia,-54.8,-68.3,2.81,70,20,1.03,AR,1693458318
68,nova sintra,14.8667,-24.7167,23.49,83,100,4.52,CV,1693458336
69,nkhotakota,-12.9274,34.2961,20.75,61,3,5.15,MW,1693458336
70,thompson,55.7435,-97.8558,17.09,88,40,1.54,CA,1693458336
71,smithers,54.7804,-127.1743,16.18,72,40,4.63,CA,1693458336
72,avarua,-21.2078,-159.775,21.03,56,93,1.03,CK,1693458336
73,georgetown,5.4112,100.3354,31.08,86,40,2.24,MY,1693458336
74,carolina,18.3808,-65.9574,28.91,88,20,3.09,PR,1693458139
75,ocean shores,46.9737,-124.1563,18.0,93,0,0.45,US,1693458225
76,kerikeri,-35.2268,173.9474,16.06,71,3,2.68,NZ,1693458337
77,olmaliq,40.8447,69.5983,23.1,52,52,2.67,UZ,1693458337
78,ta`u,-14.2336,-169.5144,26.69,80,93,11.12,AS,1693458337
79,port mathurin,-19.6833,63.4167,22.15,73,6,5.09,MU,1693458337
80,yuzhno-kurilsk,44.0306,145.8556,19.56,93,99,5.73,RU,1693458337
81,blackmans bay,-43.0167,147.3167,14.07,55,59,6.32,AU,1693458338
82,keflavik,64.0049,-22.5624,10.24,87,75,3.6,IS,1693458338
83,aswan,24.0934,32.907,29.61,20,0,2.06,EG,1693458338
84,batu pahat,1.8548,102.9325,27.88,79,66,3.35,MY,1693458338
85,sao joao da barra,-21.6403,-41.0511,20.14,90,43,5.68,BR,1693458338
86,navirai,-23.065,-54.1906,20.11,80,61,2.03,BR,1693458132
87,alliance,40.9153,-81.1059,15.78,96,86,3.47,US,1693458338
88,lihue,21.9789,-159.3672,28.58,81,75,8.23,US,1693458243
89,kalabo,-14.97,22.6814,10.99,50,0,2.67,ZM,1693458339
90,carnarvon,-24.8667,113.6333,25.51,53,0,4.93,AU,1693458339
91,ocean city,39.2776,-74.5746,23.01,70,100,3.58,US,1693458339
92,ilulissat,69.2167,-51.1,4.01,87,100,4.63,GL,1693458339
93,basco,20.4487,121.9702,27.99,78,100,2.76,PH,1693458339
94,whitby,54.4877,-0.615,8.97,88,16,1.95,GB,1693458339
95,cabedelo,-6.9811,-34.8339,23.37,83,29,5.44,BR,1693458340
96,ribeira grande,38.5167,-28.7,20.99,89,100,1.79,PT,1693458340
97,bilibino,68.0546,166.4372,7.21,85,96,8.13,RU,1693458340
98,tara,56.8944,74.371,19.45,61,49,3.81,RU,1693458340
99,ola,59.5833,151.2833,21.19,90,96,6.0,RU,1693458340
100,port moresby,-9.4431,147.1797,29.68,58,20,5.14,PG,1693458340
101,bayanaul,50.7889,75.6956,17.87,36,81,8.4,KZ,1693458340
102,belfast,54.5833,-5.9333,11.33,99,96,2.06,GB,1693458340
103,kenora,49.8167,-94.4337,18.54,72,0,3.09,CA,1693458111
104,fale old settlement,-9.3852,-171.2468,28.65,75,37,5.49,TK,1693458341
105,tual,-5.6667,132.75,24.81,79,29,9.03,ID,1693458341
106,egilsstadir,65.2653,-14.3948,7.95,93,100,0.0,IS,1693458341
107,tari,12.4086,4.4914,23.27,88,47,6.0,NG,1693458341
108,papatowai,-46.5619,169.4708,12.73,64,4,1.05,NZ,1693458341
109,vilyuysk,63.7553,121.6247,18.86,71,100,4.26,RU,1693458341
110,murzuq,25.9155,13.9184,29.1,30,4,5.9,LY,1693458218
111,kodiak,57.79,-152.4072,12.73,71,75,4.12,US,1693458246
112,badger,64.8,-147.5333,12.93,94,75,0.0,US,1693458342
113,alice springs,-23.7,133.8833,21.75,26,0,4.63,AU,1693458342
114,lauro de freitas,-12.8944,-38.3272,26.01,83,40,2.57,BR,1693458079
115,enewetak,11.3474,162.3373,28.79,78,92,5.52,MH,1693458342
116,mukalla,14.5425,49.1242,31.17,61,46,0.99,YE,1693458342
117,claveria,18.6074,121.0832,27.51,86,100,1.0,PH,1693458342
118,port elizabeth,-33.918,25.5701,14.16,67,0,2.57,ZA,1693458342
119,constantia,44.1833,28.65,22.61,78,1,1.74,RO,1693458342
120,holualoa,19.6228,-155.9522,27.7,74,40,3.09,US,1693458343
121,nar'yan-mar,67.6713,53.087,12.41,65,47,2.45,RU,1693458343
122,ambodifotatra,-16.9833,49.85,23.3,63,85,8.53,MG,1693458343
123,howrah,22.5892,88.3103,35.0,59,40,0.0,IN,1693458343
124,burang,30.25,81.1667,16.58,33,0,2.07,CN,1693458343
125,qaqortoq,60.7167,-46.0333,4.73,93,100,2.56,GL,1693458343
126,tralee,52.2704,-9.7026,15.18,99,100,2.2,IE,1693458344
127,mitsamiouli,-11.3847,43.2844,22.16,83,20,3.09,KM,1693458344
128,grand falls-windsor,48.9332,-55.6649,20.84,95,100,0.89,CA,1693458344
129,bada,51.392,109.8717,24.2,33,9,0.53,RU,1693458344
130,chonchi,-42.6128,-73.8092,4.56,91,100,1.91,CL,1693458344
131,bac lieu,9.285,105.7244,30.96,65,99,7.32,VN,1693458344
132,lebu,-37.6167,-73.65,7.17,84,58,2.66,CL,1693458344
133,chernyshevskiy,63.0128,112.4714,18.21,58,24,6.34,RU,1693458345
134,kununurra,-15.7667,128.7333,34.99,10,8,3.6,AU,1693458345
135,minas de marcona,-15.2119,-75.1103,12.63,89,56,3.91,PE,1693458345
136,pisco,-13.7,-76.2167,17.23,82,0,2.06,PE,1693458305
137,mugia,43.1041,-9.2179,18.98,91,23,1.63,ES,1693458345
138,hermanus,-34.4187,19.2345,9.33,85,100,5.99,ZA,1693458345
139,mangrol,21.1167,70.1167,28.29,64,75,3.16,IN,1693458142
140,richards bay,-28.783,32.0377,18.51,79,0,6.56,ZA,1693458345
141,pioner,55.3166,85.9508,21.69,73,0,3.0,RU,1693458345
142,bubaque,11.2833,-15.8333,26.64,82,87,3.37,GW,1693458345
143,antofagasta,-23.65,-70.4,16.6,72,42,2.43,CL,1693457484
144,st. john's,47.5649,-52.7093,23.66,95,100,9.77,CA,1693458346
145,taungoo,18.9333,96.4333,29.49,78,97,3.11,MM,1693458346
146,klyuchi,52.2667,79.1667,18.28,48,100,5.89,RU,1693458346
147,punta arenas,-53.15,-70.9167,2.23,77,58,6.57,CL,1693458081
148,luderitz,-26.6481,15.1594,12.77,90,34,4.46,NA,1693458346
149,longyearbyen,78.2186,15.6401,7.91,81,75,5.14,SJ,1693458346
150,tiksi,71.6872,128.8694,1.87,67,98,7.36,RU,1693458346
151,mezhdurechensk,53.6942,88.0603,25.43,55,12,0.96,RU,1693458346
152,san luis de la loma,17.2706,-100.8939,26.14,84,100,1.63,MX,1693458346
153,georgiyevka,43.0369,74.7114,15.02,82,75,3.0,KZ,1693458347
154,college,64.8569,-147.8028,13.18,91,75,1.54,US,1693458072
155,waupaca,44.358,-89.086,14.05,88,0,0.0,US,1693458347
156,haapavesi,64.1333,25.3667,14.18,95,100,1.34,FI,1693458347
157,el galpon,-25.3807,-64.6526,17.08,42,0,1.62,AR,1693458347
158,preobrazheniye,42.9019,133.9064,19.88,97,100,3.37,RU,1693458347
159,whitehorse,60.7161,-135.0538,15.43,58,75,6.17,CA,1693458347
160,galliano,29.4422,-90.2992,26.11,88,0,0.0,US,1693458348
161,paita,-5.0892,-81.1144,20.0,85,6,3.97,PE,1693458348
162,nambutalai,9.7167,79.0,31.66,54,99,2.12,IN,1693458348
163,tamandare,-8.7597,-35.1047,24.4,84,39,2.72,BR,1693458348
164,ust-tsilma,65.441,52.1498,13.63,60,41,2.04,RU,1693458348
165,albany,42.6001,-73.9662,17.02,82,54,1.34,US,1693458236
166,vorgashor,67.5833,63.95,9.76,78,89,2.81,RU,1693458348
167,kingsland,30.8,-81.6898,26.06,88,58,3.89,US,1693458348
168,morondava,-20.2833,44.2833,21.61,52,11,4.08,MG,1693458348
169,nacala,-14.5428,40.6728,21.76,86,39,2.81,MZ,1693458348
170,magadan,59.5667,150.8,20.85,84,78,5.12,RU,1693458349
171,la passe,45.5549,-0.8967,14.13,81,94,3.91,FR,1693458349
172,san antonio de pale,-1.4014,5.6325,23.85,87,99,4.75,GQ,1693458349
173,khyzy,40.9058,49.0813,19.15,62,0,0.18,AZ,1693458349
174,shendi,16.6915,33.4341,28.79,58,100,8.49,SD,1693458349
175,kalmunai,7.4167,81.8167,31.55,57,70,3.65,LK,1693458349
176,ha tinh,18.3333,105.9,32.34,51,82,5.41,VN,1693458350
177,palikir - national government center,6.9248,158.1611,30.47,70,100,1.54,FM,1693458350
178,newman,37.3138,-121.0208,26.83,65,0,3.01,US,1693458350
179,kayangel,8.0823,134.7173,28.56,80,29,6.71,PW,1693458350
180,prado,-17.3411,-39.2208,23.46,96,88,2.93,BR,1693458350
181,plastun,44.7561,136.2939,21.07,84,100,0.65,RU,1693458350
182,hawaiian paradise park,19.5933,-154.9731,25.73,89,100,2.57,US,1693458351
183,niafunke,15.9322,-3.9906,26.92,61,100,8.61,ML,1693458351
184,kamaishi,39.2667,141.8833,28.99,71,47,6.09,JP,1693458351
185,bredasdorp,-34.5322,20.0403,12.03,95,100,2.65,ZA,1693458351
186,bridgewater,44.3835,-64.5155,19.82,96,100,5.66,CA,1693458351
187,cabo san lucas,22.8909,-109.9124,30.42,78,11,0.37,MX,1693458313
188,weno,7.4515,151.8468,31.97,79,100,3.6,FM,1693458352
189,anupgarh,29.1911,73.2086,35.18,39,0,6.57,IN,1693458352
190,aral,40.5156,81.2636,32.68,13,0,2.95,CN,1693458321
191,san andres,12.5847,-81.7006,30.01,79,20,5.66,CO,1693458352
192,chivilcoy,-34.8957,-60.0167,8.39,32,69,2.02,AR,1693458352
193,arvayheer,46.2639,102.775,18.85,48,100,3.68,MN,1693458352
194,guerrero negro,27.9769,-114.0611,23.49,72,100,3.7,MX,1693458246
195,chamical,-30.36,-66.314,16.85,36,7,4.53,AR,1693458353
196,tamanrasset,22.785,5.5228,23.95,35,40,1.03,DZ,1693458353
197,westport,41.1415,-73.3579,21.57,76,0,4.63,US,1693458353
198,uturoa,-16.7333,-151.4333,24.32,70,99,6.39,PF,1693458353
199,fortuna,40.5982,-124.1573,17.19,93,100,4.63,US,1693458353
200,olyokminsk,60.3736,120.4264,28.66,25,74,3.33,RU,1693458354
201,mount darwin,-16.7725,31.5838,12.06,74,0,0.89,ZW,1693458354
202,queenstown,-31.8976,26.8753,12.7,34,0,3.15,ZA,1693458245
203,brookings,44.3114,-96.7984,21.21,79,1,0.45,US,1693458318
204,utrik,11.2278,169.8474,28.83,75,40,6.38,MH,1693458354
205,kokopo,-4.352,152.2633,26.67,67,100,8.9,PG,1693458354
206,youkounkoun,12.5333,-13.1333,22.47,98,17,1.27,GN,1693458354
207,kangding,30.0513,101.9603,17.42,81,98,2.08,CN,1693458354
208,micco,27.8806,-80.5003,27.26,93,57,0.89,US,1693458354
209,chipata,-13.6333,32.65,15.04,59,0,2.76,ZM,1693458355
210,gaalkacyo,6.7697,47.4308,26.91,51,72,9.64,SO,1693458355
211,harper,4.375,-7.7169,24.6,86,99,2.9,LR,1693458355
212,waingapu,-9.6567,120.2641,29.56,39,64,8.03,ID,1693458355
213,port lincoln,-34.7333,135.8667,15.35,60,89,5.13,AU,1693458355
214,sinop,41.7711,34.8709,26.7,38,57,0.8,TR,1693458355
215,choibalsan,48.0667,114.5,24.29,26,2,4.81,MN,1693458355
216,amahai,-3.3333,128.9167,25.81,85,97,5.27,ID,1693458356
217,chui,-33.6971,-53.4616,11.55,85,14,2.49,UY,1693458356
218,kokshetau,53.2775,69.3883,12.18,76,75,9.0,KZ,1693458357
219,papao,-17.75,-149.55,24.82,73,100,4.51,PF,1693458357
220,minas,-34.3759,-55.2377,9.47,87,38,4.39,UY,1693458357
221,coahuayana de hidalgo,18.7,-103.6583,26.42,89,100,0.77,MX,1693458357
222,bangjun,39.9911,117.2628,25.13,64,72,0.72,CN,1693458357
223,nabire,-3.3667,135.4833,29.8,69,47,1.28,ID,1693458357
224,dolores,-36.3132,-57.6792,6.81,79,68,3.61,AR,1693458357
225,talnakh,69.4865,88.3972,8.45,56,55,1.11,RU,1693458357
226,ujae,8.9322,165.7642,28.68,79,85,6.52,MH,1693458357
227,la roda,39.2167,-2.15,18.84,86,18,2.57,ES,1693458358
228,cabanas,22.9758,-82.9219,26.67,91,67,3.83,CU,1693458358
229,alenquer,-1.9417,-54.7383,25.26,56,13,1.77,BR,1693458079
230,sibut,5.718,19.0739,22.1,88,100,0.98,CF,1693458358
231,port alfred,-33.5906,26.891,22.75,32,0,6.32,ZA,1693458358
232,padang,-0.9492,100.3543,30.03,82,96,3.53,ID,1693458068
233,mount pearl,47.5166,-52.7813,23.19,95,100,9.77,CA,1693458358
234,sittwe,20.15,92.9,29.03,79,59,4.55,MM,1693458358
235,katsuura,35.1333,140.3,31.01,72,93,5.07,JP,1693458358
236,bam,29.106,58.357,35.79,12,0,1.71,IR,1693458359
237,port macquarie,-31.4333,152.9167,21.05,84,49,3.58,AU,1693458359
238,peace river,56.2501,-117.286,18.17,88,100,1.54,CA,1693458359
239,vierzon,47.2101,2.0625,13.33,80,71,3.42,FR,1693458359
240,touros,-5.1989,-35.4608,24.01,84,0,4.93,BR,1693458359
241,vilyuchinsk,52.9306,158.4028,25.15,59,78,5.25,RU,1693458359
242,kennett,36.2362,-90.0556,20.64,82,0,4.63,US,1693458359
243,saipan,15.1355,145.701,29.39,84,20,6.17,MP,1693458360
244,gaoyou,32.7858,119.4278,27.05,57,64,3.06,CN,1693458360
245,extrema,-22.8547,-46.3183,12.64,87,3,1.26,BR,1693458360
246,banlung,13.7468,107.0045,25.36,97,98,1.97,KH,1693458360
247,port sudan,19.6175,37.2164,33.44,53,12,4.15,SD,1693458360
248,palmerston north,-40.35,175.6167,14.47,79,59,0.45,NZ,1693458360
249,ascension,30.2169,-90.9001,26.72,54,0,3.09,US,1693458360
250,happy valley-goose bay,53.3168,-60.3315,7.17,93,100,7.72,CA,1693458361
251,wotho,10.1657,166.0102,28.81,74,99,6.25,MH,1693458361
252,bengkulu,-3.8004,102.2655,28.41,70,100,4.96,ID,1693458361
253,bechar,31.6167,-2.2167,27.18,18,0,4.63,DZ,1693458361
254,kavaratti,10.5669,72.642,27.84,80,75,7.43,IN,1693458361
255,alofi,-19.0595,-169.9187,24.94,65,73,7.2,NU,1693458361
256,port saint john's,-31.6229,29.5448,19.85,34,0,2.91,ZA,1693458361
257,chhota udepur,22.3167,74.0167,29.58,64,2,2.94,IN,1693458361
258,wailua homesteads,22.0669,-159.378,28.24,85,75,8.23,US,1693458362
259,bor,56.3567,44.0669,10.96,68,73,1.69,RU,1693458362
260,ancud,-41.8697,-73.8203,8.0,79,100,5.39,CL,1693458362
261,san patricio,28.017,-97.5169,29.92,54,51,3.32,US,1693458362
262,mar del plata,-38.0023,-57.5575,9.51,63,0,5.81,AR,1693458362
263,gwio kura,12.6753,11.0682,24.74,74,100,4.06,NG,1693458362
264,cole harbour,44.6724,-63.4751,19.98,96,100,5.66,CA,1693458363
265,boende,-0.2167,20.8667,21.79,87,44,1.24,CD,1693458363
266,vadso,70.0744,29.7487,12.49,93,0,3.6,NO,1693458201
267,nizhnyaya tavda,57.6731,66.1725,12.93,82,96,4.05,RU,1693458363
268,az zuwaytinah,30.9522,20.1202,24.52,57,0,4.79,LY,1693458364
269,mahdia,35.5047,11.0622,25.97,78,100,5.0,TN,1693458364
270,buala,-8.145,159.5921,26.61,84,83,2.37,SB,1693458364
271,keuruu,62.2667,24.7,16.1,99,100,2.45,FI,1693458364
272,antigonish,45.6169,-61.9986,21.64,98,100,1.79,CA,1693458365
273,baran,25.1,76.5167,31.81,50,7,3.79,IN,1693458365
274,nouadhibou,20.931,-17.0347,25.99,73,94,3.6,MR,1693458365
275,dalbandin,28.8947,64.4101,35.28,27,0,0.9,PK,1693458366
276,ribeira brava,32.65,-17.0667,23.35,71,95,2.15,PT,1693458366
277,acarau,-2.8856,-40.12,25.35,81,1,7.19,BR,1693458366
278,santiago de cao,-7.9589,-79.2392,20.07,88,100,3.6,PE,1693458367
279,puerto san jose,13.9256,-90.8244,27.38,84,100,2.52,GT,1693458367
280,calca,-13.3333,-71.95,8.64,77,37,1.11,PE,1693458367
281,akureyri,65.6835,-18.0878,7.96,93,100,3.09,IS,1693458367
282,awjilah,29.1081,21.2869,25.13,59,4,4.04,LY,1693458368
283,mejit,10.2753,170.8646,28.78,76,78,6.57,MH,1693458368
284,tuineje,28.3237,-14.0472,21.88,83,16,5.31,ES,1693458368
285,zemio,5.0314,25.1361,19.94,99,100,1.08,CF,1693458368
286,villa gesell,-37.2639,-56.973,6.14,87,34,4.56,AR,1693458368
287,tarrafal de sao nicolau,16.5667,-24.3667,26.8,86,100,0.91,CV,1693458368
288,chibougamau,49.9168,-74.3659,6.79,81,0,3.09,CA,1693458369
289,santa ana de yacuma,-13.75,-65.4333,28.66,43,15,3.06,BO,1693458369
290,aykhal,66.0,111.5,3.6,96,100,5.6,RU,1693458369
291,yeraliyev,43.2,51.65,21.79,34,0,0.6,KZ,1693458369
292,san pedro,14.35,121.0167,30.57,78,75,7.72,PH,1693458369
293,roma,43.2128,-75.4557,14.49,94,75,1.54,US,1693458365
294,iskateley,67.6803,53.1512,12.37,65,49,2.34,RU,1693458370
295,arcachon,44.5875,-1.0519,15.03,94,75,3.09,FR,1693458370
296,moss bluff,30.3027,-93.1907,25.99,58,0,2.57,US,1693458370
297,tilaran,10.4703,-84.9671,25.04,90,82,2.69,CR,1693458370
298,kulhudhuffushi,6.6221,73.07,26.74,84,100,9.43,MV,1693458371
299,viseu,40.661,-7.9097,11.52,73,32,1.72,PT,1693458371
300,takoradi,4.8845,-1.7554,23.59,94,71,2.41,GH,1693458371
301,callao,-12.0667,-77.15,19.84,82,100,5.14,PE,1693458371
302,chornomorske,45.5039,32.6997,24.47,70,2,2.76,UA,1693458371
303,cide,41.8921,33.0044,25.77,59,57,1.39,TR,1693458371
304,immenhausen,51.4276,9.4802,11.1,97,82,2.59,DE,1693458371
305,salahonda,2.1019,-78.7217,27.37,83,61,2.92,CO,1693458372
306,la rioja,42.25,-2.5,7.88,79,2,2.45,ES,1693458210
307,moche,-8.1711,-79.0092,20.1,88,100,3.6,PE,1693458372
308,haiku-pauwela,20.9219,-156.3051,25.58,76,13,7.6,US,1693458372
309,lompoc,34.6391,-120.4579,21.12,91,0,0.0,US,1693458372
310,juneau,58.3019,-134.4197,14.56,98,100,0.0,US,1693458287
311,tolanaro,-25.0319,46.9987,19.04,77,40,4.63,MG,1693458373
312,numata,36.6333,139.05,33.4,39,95,2.01,JP,1693458373
313,fisterra,42.9049,-9.2629,18.9,92,17,2.71,ES,1693458373
314,victoria,22.2855,114.1577,33.57,72,100,4.02,HK,1693458131
315,hung yen,20.65,106.0667,33.34,41,1,5.74,VN,1693458374
316,east ballina,-28.8667,153.5833,24.89,60,3,4.76,AU,1693458374
317,concepcion del oro,24.6333,-101.4167,16.86,52,38,3.74,MX,1693458374
318,kapa'a,22.0752,-159.319,28.99,85,75,8.23,US,1693458366
319,miguel ahumada,30.6167,-106.5167,26.93,27,0,3.79,MX,1693458374
320,usogorsk,63.4106,48.6872,13.38,77,98,1.06,RU,1693458374
321,nova olimpia,-14.7972,-57.2881,24.67,71,5,1.48,BR,1693458375
322,udomlya,57.8794,34.9925,15.02,89,64,3.5,RU,1693458375
323,ivdel',60.6911,60.4206,12.55,97,100,5.89,RU,1693458375
324,tenenkou,14.4572,-4.9169,24.48,76,100,2.34,ML,1693458375
325,bairnsdale,-37.8333,147.6167,17.81,63,60,2.24,AU,1693458375
326,almeria,37.1667,-2.3333,18.76,82,12,0.96,ES,1693458376
327,gadzhiyevo,69.2551,33.3362,12.29,80,60,0.34,RU,1693458376
328,hasaki,35.7333,140.8333,35.73,74,85,6.63,JP,1693458376
329,palu,-0.8917,119.8707,32.63,59,29,2.12,ID,1693458376
330,pingxiang,27.6167,113.85,28.1,62,74,2.71,CN,1693458376
331,colonia,50.9333,6.95,12.2,84,100,3.09,DE,1693458376
332,tsiombe,-25.3,45.4833,19.89,63,8,3.85,MG,1693458377
333,kasane,-17.8167,25.15,12.41,52,0,2.08,BW,1693458377
334,sale,34.0389,-6.8166,15.38,100,75,0.0,MA,1693458377
335,belomorsk,64.5232,34.7668,12.46,97,100,3.85,RU,1693458377
336,anadyr,64.75,177.4833,13.28,66,20,6.0,RU,1693458377
337,sitka,57.0531,-135.33,14.94,88,100,2.57,US,1693458377
338,sarrebourg,48.7333,7.05,12.34,94,58,2.68,FR,1693458378
339,camiri,-20.05,-63.5167,18.5,55,11,1.23,BO,1693458378
340,nemuro,43.3236,145.575,20.05,91,94,8.56,JP,1693458378
341,kourou,5.1552,-52.6478,24.03,85,3,2.27,GF,1693458273
342,macia,-25.0269,33.0989,16.74,84,0,1.75,MZ,1693458378
343,mata-utu,-13.2816,-176.1745,27.4,81,37,9.45,WF,1693458379
344,kone,-21.0595,164.8658,24.76,75,100,2.85,NC,1693458379
345,labrador city,52.9463,-66.9114,5.95,75,75,4.63,CA,1693458379
346,rakvere,59.3464,26.3558,18.37,93,95,4.32,EE,1693458379
347,itamarandiba,-17.8572,-42.8589,17.46,93,56,0.44,BR,1693458379
348,dongdai,26.2419,119.6169,28.95,81,100,9.22,CN,1693458379
349,naze,28.3667,129.4833,28.51,88,58,8.74,JP,1693458379
350,panacan,9.2463,118.4082,30.04,73,99,8.1,PH,1693458380
351,new norfolk,-42.7826,147.0587,14.72,59,75,4.87,AU,1693458380
352,qui nhon,13.7667,109.2333,32.99,57,92,1.05,VN,1693458380
353,tindouf,27.6711,-8.1474,20.25,60,0,9.26,DZ,1693458380
354,yarmouth,41.7057,-70.2286,20.54,84,0,4.47,US,1693458380
355,berdigestyakh,62.0989,126.6992,25.85,36,99,4.18,RU,1693458380
356,kavieng,-2.5744,150.7967,27.39,77,99,7.63,PG,1693458381
357,nantucket,41.2835,-70.0995,20.64,82,0,4.63,US,1693458368
358,cooma,-36.2333,149.1333,16.12,36,9,2.68,AU,1693458381
359,tura,25.5198,90.2201,31.88,57,39,1.29,IN,1693458381
360,puerto ayacucho,5.6639,-67.6236,23.69,91,100,1.8,VE,1693458381
361,enoch,37.7733,-113.0244,24.71,26,0,3.09,US,1693458381
362,ati,13.2154,18.3353,23.62,73,89,3.54,TD,1693458138
363,elizabethton,36.3487,-82.2107,19.76,88,100,0.0,US,1693458382
364,guankou,28.15,113.6333,29.89,50,45,1.4,CN,1693458382
365,onguday,50.75,86.15,23.23,48,66,1.34,RU,1693458382
366,crane,31.3974,-102.3501,28.6,29,0,1.58,US,1693458382
367,mcpherson,38.3708,-97.6642,22.64,54,0,4.77,US,1693458382
368,praia da vitoria,38.7333,-27.0667,20.98,88,20,2.04,PT,1693458383
369,kodinsk,58.6881,99.1844,21.92,47,83,3.09,RU,1693458383
370,arteche,12.2645,125.4048,33.22,53,100,5.03,PH,1693458383
371,montevideo,-34.8335,-56.1674,12.01,81,0,2.06,UY,1693458383
372,kudahuvadhoo,2.6708,72.8944,27.64,75,55,4.02,MV,1693458384
373,badiyah,22.45,58.8,30.54,52,2,2.21,OM,1693458384
374,lata,40.1629,-8.3327,15.6,92,71,1.13,PT,1693458384
375,nadi,-17.8,177.4167,27.0,61,75,2.06,FJ,1693458384
376,san blas,21.5167,-105.2667,26.18,87,70,0.34,MX,1693458384
377,dayton,39.7589,-84.1916,15.18,87,0,5.14,US,1693458204
378,argo,37.6333,22.7333,25.99,66,74,2.17,GR,1693458385
379,dungarvan,52.0881,-7.6253,13.64,99,100,2.57,IE,1693458385
380,phalaborwa,-23.943,31.1411,13.6,63,0,1.21,ZA,1693458385
381,gamba,-2.65,10.0,21.83,94,80,1.57,GA,1693458385
382,cherdyn',60.403,56.4787,10.38,91,100,4.7,RU,1693458385
383,ibeto,10.4854,5.145,20.9,97,66,1.72,NG,1693458385
384,bandarbeyla,9.4942,50.8122,29.05,53,47,11.8,SO,1693458385
385,arraias,-12.9288,-46.9437,23.28,70,71,1.33,BR,1693458386
386,benjamin constant,-4.3831,-70.0311,23.07,85,40,0.86,BR,1693458386
387,walvis bay,-22.9575,14.5053,12.83,100,100,1.03,NA,1693458386
388,arakli,40.9385,40.0584,28.05,53,0,0.24,TR,1693458386
389,puerto santa,-8.9906,-78.6456,19.59,85,79,5.09,PE,1693458387
390,tofol,5.3248,163.0078,30.88,74,75,1.54,FM,1693458387
391,maceio,-9.6658,-35.7353,23.69,100,75,1.54,BR,1693458387
392,aconibe,1.2968,10.9369,19.79,99,99,0.98,GQ,1693458387
393,kralendijk,12.15,-68.2667,28.99,84,20,8.23,BQ,1693458387
394,tabas,33.5959,56.9244,32.85,19,0,0.58,IR,1693458387
395,bel ombre,-4.6167,55.4167,27.91,69,40,6.69,SC,1693458388
396,soure,-0.7167,-48.5233,26.08,80,0,3.52,BR,1693458388
397,susuman,62.7833,148.1667,19.01,55,97,11.03,RU,1693458388
398,khandyga,62.6667,135.6,25.21,42,68,3.23,RU,1693458388
399,norak,38.3892,69.3227,29.84,21,68,2.0,TJ,1693458388
400,malango,-2.9627,119.9001,29.21,45,6,2.61,ID,1693458388
401,taungdwingyi,20.0167,95.55,30.52,70,61,3.17,MM,1693458389
402,siwana,25.6333,72.4167,30.07,58,10,4.06,IN,1693458389
403,bongaree,-27.0797,153.1586,24.56,62,4,5.29,AU,1693458389
404,chinde,26.8418,88.0763,25.02,66,31,1.91,NP,1693458389
405,hilo,19.7297,-155.09,26.27,88,100,2.57,US,1693458389
406,necochea,-38.5473,-58.7368,5.49,62,0,4.96,AR,1693458390
407,barcelos,41.5388,-8.6151,18.25,89,3,1.68,PT,1693458390
408,baiyin,36.5583,104.2081,25.66,27,99,4.34,CN,1693458390
409,tyrnyauz,43.3828,42.9183,22.05,63,0,0.81,RU,1693458390
410,ingeniero jacobacci,-41.3427,-69.5448,1.32,64,51,7.35,AR,1693458390
411,fort bragg,35.139,-79.006,22.47,98,100,7.2,US,1693458221
412,lazaro cardenas,17.9583,-102.2,26.95,83,92,0.87,MX,1693458391
413,tumayr,25.7039,45.868,32.0,19,2,4.3,SA,1693458391
414,kismayo,-0.3582,42.5454,25.93,77,37,7.41,SO,1693458391
415,zayed city,24.3768,54.589,35.08,41,0,4.63,AE,1693458391
416,linqiong,30.4159,103.4609,30.9,56,56,2.31,CN,1693458391
417,artesia,33.8658,-118.0831,27.71,88,0,1.54,US,1693458392
418,genhe,50.7833,121.5167,14.95,83,96,2.16,CN,1693458392
419,vorkuta,67.5,64.0,9.84,79,93,2.63,RU,1693458393
420,mount gambier,-37.8333,140.7667,13.23,69,93,5.07,AU,1693458393
421,freetown,8.484,-13.2299,25.84,94,75,1.03,SL,1693458393
422,semey,50.4111,80.2275,18.12,82,75,5.0,KZ,1693458393
423,sanibel,26.449,-82.0223,30.01,86,12,2.68,US,1693458394
424,mersing,2.4312,103.8405,31.95,70,40,2.57,MY,1693458394
425,kiunga,-6.1219,141.2906,27.66,66,92,1.64,PG,1693458394
426,nuuk,64.1835,-51.7216,4.93,86,100,7.15,GL,1693458394
427,salinopolis,-0.6136,-47.3561,25.78,81,6,3.19,BR,1693458269
428,biloela,-24.4167,150.5,27.89,20,0,4.03,AU,1693458395
429,ad dilam,23.9915,47.1627,33.23,35,38,4.57,SA,1693458395
430,mangai,-4.05,19.5333,23.13,63,39,0.74,CD,1693458395
431,neryungri,56.6709,124.6491,23.15,40,9,2.14,RU,1693458395
432,hastinapur,29.1667,78.0167,31.93,55,0,2.33,IN,1693458395
433,dunedin,-45.8742,170.5036,13.78,48,2,1.34,NZ,1693458396
434,mawu,29.5923,107.3139,29.61,48,1,1.29,CN,1693458396
435,laguna,38.421,-121.4238,26.62,48,0,1.54,US,1693458396
436,sao vicente,-23.9631,-46.3919,19.43,26,51,1.69,BR,1693458396
437,solnechnyy,50.7214,136.6319,15.54,83,100,1.22,RU,1693458396
438,bo phloi,14.3236,99.5161,31.91,56,100,2.26,TH,1693458397
439,akdepe,42.0551,59.3788,19.05,28,0,2.85,TM,1693458397
440,san juan,-31.5375,-68.5364,13.91,34,0,6.84,AR,1693458340
441,victoria de durango,24.0333,-104.6667,16.71,89,100,2.68,MX,1693458397
442,mil'kovo,55.6078,37.7956,14.27,70,7,3.47,RU,1693458397
443,takab,36.4009,47.1133,19.91,47,4,0.04,IR,1693458398
444,aripuana,-9.1667,-60.6333,23.77,81,5,1.12,BR,1693458398
445,borogontsy,62.6683,131.1683,26.45,36,73,3.98,RU,1693458398
446,axim,4.8699,-2.2405,23.89,93,69,2.77,GH,1693458398
447,safi,32.1667,-8.8333,17.06,93,1,2.94,MA,1693458398
448,rawah,34.4816,41.9093,30.72,35,0,4.83,IQ,1693458398
449,shimoda,34.6667,138.95,31.2,65,77,3.91,JP,1693458398
450,puerto baquerizo moreno,-0.9,-89.6,24.14,82,64,6.29,EC,1693458399
451,alappuzha,9.49,76.3264,30.56,80,99,1.55,IN,1693458399
452,sisimiut,66.9395,-53.6735,3.94,84,82,11.37,GL,1693458399
453,petropolis,59.8944,30.2642,17.25,94,40,5.0,RU,1693458399
454,labytnangi,66.6572,66.4183,12.3,64,99,5.91,RU,1693458399
455,buncrana,55.1333,-7.45,11.02,91,100,2.45,IE,1693458399
456,saldanha,-33.0117,17.9442,13.03,89,95,4.41,ZA,1693458399
457,levuka,50.1834,-105.4011,15.84,48,47,1.2,CA,1693458399
458,mount isa,-20.7333,139.5,28.87,16,0,5.66,AU,1693458400
459,puerto deseado,-47.7503,-65.8938,5.92,48,1,10.47,AR,1693458110
460,polyarnyy,69.1989,33.4478,12.39,80,62,0.72,RU,1693458400
461,lerwick,60.1545,-1.1494,12.0,91,5,3.83,GB,1693458400
462,baie-comeau,49.2168,-68.1489,11.82,87,100,4.12,CA,1693458400
463,myeik,12.4333,98.6,29.33,69,95,3.1,MM,1693458400
464,greenville,35.6127,-77.3663,23.09,98,100,4.12,US,1693458238
465,kruisfontein,-34.0033,24.7314,17.56,30,38,2.47,ZA,1693458401
466,barton upon humber,53.68,-0.4377,9.43,93,20,3.09,GB,1693458401
467,torghay,49.6339,63.4981,14.78,57,70,5.96,KZ,1693458401
468,babayevo,59.3936,35.9371,14.99,84,98,3.48,RU,1693458401
469,nova xavantina,-14.6667,-52.35,25.36,69,4,0.96,BR,1693458179
470,selfoss,63.9331,-20.9971,8.91,92,100,1.32,IS,1693458402
471,calama,-22.4667,-68.9333,11.51,16,0,2.86,CL,1693458402
472,vizinga,61.0749,50.1031,11.98,72,55,1.53,RU,1693458402
473,oranjemund,-28.55,16.4333,13.17,84,75,1.11,NA,1693458402
474,san ignacio,17.1561,-89.0714,25.08,94,75,3.09,BZ,1693458403
475,wurtulla,-26.7568,153.1256,26.83,71,8,2.24,AU,1693458403
476,galesong,-5.3166,119.3661,33.01,55,37,4.26,ID,1693458403
477,el granada,37.5027,-122.4694,24.05,78,0,5.66,US,1693458403
478,maiurno,13.4167,33.6667,24.3,77,97,4.38,SD,1693458403
479,aldama,22.9167,-98.0667,25.21,82,15,1.36,MX,1693458403
480,piti village,13.4626,144.6933,28.17,95,100,5.66,GU,1693458403
481,forster,-32.1667,152.5167,19.6,71,54,5.37,AU,1693458403
482,malanje,-9.5402,16.341,15.75,33,0,1.11,AO,1693458403
483,san agustin de valle fertil,-30.6335,-67.4682,13.45,34,1,2.2,AR,1693458403
484,brilon,51.4,8.5833,9.96,96,56,3.02,DE,1693458404
485,taoudenni,22.6783,-3.9836,35.85,26,3,2.98,ML,1693458404
486,ogulin,45.2661,15.2286,13.11,99,100,1.25,HR,1693458404
487,vigan,17.5747,120.3869,28.29,77,100,8.87,PH,1693458404
488,hastings,50.8552,0.5729,13.07,43,81,2.63,GB,1693458163
489,thomasville,35.8826,-80.082,23.37,88,100,0.89,US,1693458229
490,ellsworth,44.5434,-68.4195,17.52,97,0,3.09,US,1693458167
491,ponta delgada,37.7333,-25.6667,21.4,88,20,1.03,PT,1693458404
492,brookhaven,31.5791,-90.4407,24.81,53,1,2.44,US,1693458404
493,geraldton,-28.7667,114.6,32.23,19,0,2.06,AU,1693458256
494,moyale,3.5167,39.0584,19.8,66,62,5.97,KE,1693458405
495,athens,37.9795,23.7162,25.87,57,20,2.24,GR,1693457889
496,tobruk,32.0836,23.9764,25.51,72,0,5.28,LY,1693458405
497,san pedro pochutla,15.7333,-96.4667,25.4,92,86,1.75,MX,1693458293
498,mishelevka,52.8575,103.1719,24.3,49,100,4.48,RU,1693458405
499,campbellton,48.0075,-66.6727,11.96,96,88,4.6,CA,1693458405
500,withernsea,53.7311,0.0335,9.5,80,81,2.43,GB,1693458405
501,khost,33.3395,69.9204,29.31,39,0,1.81,AF,1693458405
502,nyurba,63.2842,118.3319,23.68,43,97,5.27,RU,1693458405
503,rosarito,32.3333,-117.0333,22.41,66,13,1.65,MX,1693458405
504,baise city,23.8997,106.6133,30.49,46,2,1.98,CN,1693458406
505,makinsk,52.6292,70.4169,13.04,64,78,8.79,KZ,1693458406
506,streator,41.1209,-88.8354,13.36,72,0,3.35,US,1693458406
507,gobabis,-22.45,18.9667,14.11,29,55,5.47,NA,1693458406
508,george town,5.4112,100.3354,31.08,86,40,2.24,MY,1693458332
509,puerto lopez,4.0845,-72.956,24.22,85,2,1.71,CO,1693458406
510,susangerd,31.5608,48.1831,36.79,19,0,5.09,IR,1693458406
511,kristiansund,63.1115,7.732,11.36,100,100,2.06,NO,1693458407
512,hadibu,12.65,54.0333,27.37,74,30,7.97,YE,1693458407
513,sao paulo de olivenca,-3.3783,-68.8725,24.24,78,21,0.92,BR,1693458407
514,mancio lima,-7.6142,-72.8958,24.04,100,0,0.0,BR,1693458394
515,prymors'k,46.7348,36.3443,23.8,46,0,6.41,UA,1693458407
516,puerto quijarro,-17.7833,-57.7667,28.61,51,58,1.42,BO,1693458407
517,saint-pierre,-21.3393,55.4781,23.65,83,75,2.57,RE,1693458407
518,burlington,39.8835,-74.6413,21.51,72,0,3.09,US,1693458407
519,bardai,11.65,7.2333,20.82,97,99,3.69,NG,1693458407
520,portland,45.5234,-122.6762,21.97,73,40,3.09,US,1693457934
521,sfizef,35.2346,-0.2444,19.07,68,1,1.07,DZ,1693458408
522,pacific grove,36.6177,-121.9166,19.58,82,0,2.24,US,1693458408
523,macapa,0.0389,-51.0664,26.99,83,40,1.03,BR,1693458313
524,dakhla,23.6848,-15.958,20.8,86,51,6.27,EH,1693458408
525,mawlaik,23.6333,94.4167,34.43,53,36,0.81,MM,1693458408
526,lanzhou,36.0564,103.7922,26.66,28,100,3.04,CN,1693458408
527,reggane,26.7158,0.1714,34.23,26,30,3.08,DZ,1693458408
528,hamilton,39.1834,-84.5333,16.67,80,0,2.68,US,1693458294
529,tromso,69.6496,18.957,10.21,100,100,2.06,NO,1693458408
530,tynda,55.1667,124.7167,23.38,49,100,0.81,RU,1693458408
531,porto novo,6.4965,2.6036,23.96,93,100,2.25,BJ,1693458408
532,yoloten,37.2989,62.3597,25.12,15,0,3.81,TM,1693458409
533,coronel dorrego,-38.7187,-61.2873,8.45,38,21,6.2,AR,1693458409
534,prineville,44.2999,-120.8345,17.06,55,100,0.0,US,1693458409
535,kikwit,-5.041,18.8162,22.7,43,0,0.71,CD,1693458409
536,flying fish cove,-10.4217,105.6791,26.82,78,75,6.17,CX,1693458409
537,sabha,27.0377,14.4283,29.49,30,8,4.02,LY,1693458409
538,vurnary,55.4904,46.9648,15.5,60,66,4.67,RU,1693458409
539,opuwo,-18.0607,13.84,17.91,32,14,2.22,NA,1693458409
540,wanning,18.8003,110.3967,29.31,81,100,3.05,CN,1693458409
541,djambala,-2.5447,14.7533,20.7,81,6,1.83,CG,1693458409
542,crucecita,-28.95,-58.9833,17.42,65,0,2.57,AR,1693458410
543,yantzaza,-3.8278,-78.7594,19.78,86,57,0.2,EC,1693458410
544,lodwar,3.1191,35.5973,25.89,54,62,6.53,KE,1693458140
545,cape coast,5.1053,-1.2466,23.62,94,78,3.21,GH,1693458410
546,merizo village,13.2658,144.6691,27.99,90,100,8.79,GU,1693458410
547,norilsk,69.3535,88.2027,8.57,57,51,1.82,RU,1693458311
548,praia,14.9215,-23.5087,26.3,89,40,4.63,CV,1693458410
549,fort st. john,56.2499,-120.8529,15.96,59,77,3.04,CA,1693458410
550,port blair,11.6667,92.75,26.02,94,100,2.57,IN,1693458410
551,guardo,42.7897,-4.8482,7.58,78,4,1.61,ES,1693458411
552,nuku'alofa,-21.1333,-175.2,23.19,78,75,3.6,TO,1693458411
553,shush,32.1942,48.2436,35.72,19,0,2.15,IR,1693458411
554,san pablo,14.0669,121.3258,31.06,59,100,5.11,PH,1693458411
555,cockburn town,21.4612,-71.1419,29.07,83,100,8.27,TC,1693458411
556,bermejo,-32.8833,-68.8,11.73,40,12,2.86,AR,1693458411
557,taghazout,30.5426,-9.7112,20.43,91,0,0.86,MA,1693458412
558,tosontsengel,48.7567,98.2839,19.81,46,100,0.43,MN,1693458412
559,ghanzi,-21.5667,21.7833,11.41,42,2,3.55,BW,1693458412
560,cabrobo,-8.5142,-39.31,23.77,67,0,5.2,BR,1693458167
561,luang prabang,19.8856,102.1347,33.33,52,60,0.13,LA,1693458412
562,mossel bay,-34.1831,22.146,13.96,90,67,4.71,ZA,1693458412
563,soio,-6.1349,12.3689,22.41,91,100,2.74,AO,1693458259
564,kokpekty,48.75,82.4,25.67,39,98,2.53,KZ,1693458413
565,clinton,42.587,-82.9199,14.01,88,0,2.57,US,1693458413
566,muisne,0.6,-80.0333,25.38,88,81,4.86,EC,1693458413
567,sauteurs,12.2167,-61.6333,28.34,76,36,7.33,GD,1693458413
